lon,lat,weather_id,weather_main,weather_description,weather_icon,base,temp,feels_like,temp_min,temp_max,pressure,humidity,sea_level,grnd_level,visibility,wind_speed,wind_deg,clouds_all,sys_type,sys_id,city,country,sunrise,sunset,record_time,city_id,cod
69.4167,34.5,800,Clear,clear sky,01n,stations,72.66,72.73,72.66,72.66,1007,66,1007,798,10000,1.19,67,0,,,Kabul,AF,2024-08-14 07:12:33+00:00,2024-08-14 20:41:39+00:00,2024-08-14 03:36:02+00:00,1138957,200
31.2497,30.0626,800,Clear,clear sky,01n,stations,86.76,93.38,86.41,86.76,1008,62,1008,1002,6000,4.63,30,0,1.0,2514.0,Cairo,EG,2024-08-14 08:21:55+00:00,2024-08-14 21:37:35+00:00,2024-08-14 01:59:48+00:00,360630,200
29.9553,31.2156,800,Clear,clear sky,01n,stations,81.37,83.71,81.37,81.37,1008,61,1008,1008,10000,3.54,356,0,,,Alexandria,EG,2024-08-14 08:25:27+00:00,2024-08-14 21:44:25+00:00,2024-08-14 02:01:37+00:00,361058,200
62.0,34.5,800,Clear,clear sky,01n,stations,84.15,81.55,84.15,84.15,1004,23,1004,890,10000,3.37,30,0,,,Herat Province,AF,2024-08-14 07:42:14+00:00,2024-08-14 21:11:18+00:00,2024-08-14 03:37:30+00:00,1140025,200
19.8189,41.3275,800,Clear,clear sky,01n,stations,76.08,76.26,76.08,76.08,1010,61,1010,975,10000,2.06,160,0,1.0,6359.0,Tirana,AL,2024-08-13 07:48:09+00:00,2024-08-13 21:43:08+00:00,2024-08-14 01:03:33+00:00,3183875,200
19.4414,41.3231,800,Clear,clear sky,01n,stations,77.18,77.7,77.18,77.18,1009,66,1009,1006,10000,0.83,138,0,1.0,6359.0,Durrës,AL,2024-08-13 07:49:41+00:00,2024-08-13 21:44:38+00:00,2024-08-14 01:03:45+00:00,3185728,200
19.4897,40.4667,800,Clear,clear sky,01n,stations,82.15,82.63,82.15,82.15,1009,48,1009,997,10000,1.94,71,0,,,Vlorë,AL,2024-08-13 07:51:09+00:00,2024-08-13 21:42:46+00:00,2024-08-14 01:07:36+00:00,3183719,200
3.042,36.7525,801,Clouds,few clouds,02n,stations,80.42,84.22,80.42,80.42,1010,74,1010,1004,10000,1.54,360,20,1.0,1060.0,Algiers,DZ,2024-08-13 08:03:42+00:00,2024-08-13 21:41:47+00:00,2024-08-14 00:06:12+00:00,2507480,200
-0.6417,35.6911,801,Clouds,few clouds,02n,stations,80.31,82.8,80.31,80.31,1011,65,1011,997,10000,5.66,200,20,1.0,1090.0,Oran,DZ,2024-08-13 08:20:14+00:00,2024-08-13 21:54:43+00:00,2024-08-14 00:05:44+00:00,2485926,200
6.6147,36.365,801,Clouds,few clouds,02n,stations,81.21,82.47,81.21,81.21,1012,54,1012,931,10000,1.72,73,23,,,Constantine,DZ,2024-08-13 07:50:04+00:00,2024-08-13 21:26:51+00:00,2024-08-14 00:04:37+00:00,2501152,200
-63.0578,18.217,500,Rain,light rain,10d,stations,80.94,86.68,80.82,81.1,1010,82,1010,1010,10000,12.25,125,100,2.0,2007546.0,The Valley,AI,2024-08-13 07:53:59+00:00,2024-08-13 20:40:14+00:00,2024-08-13 19:02:52+00:00,3573374,200
-92.341,34.5507,802,Clouds,scattered clouds,03d,stations,94.8,107.4,93.54,96.51,1014,55,1014,1002,10000,0.45,327,26,2.0,2003557.0,East End,US,2024-08-13 08:29:05+00:00,2024-08-13 21:59:22+00:00,2024-08-13 18:07:44+00:00,4109452,200
-122.2701,47.1412,804,Clouds,overcast clouds,04d,stations,67.78,67.08,65.08,70.38,1017,60,1017,1001,10000,2.57,280,100,2.0,2001487.0,South Hill,US,2024-08-13 08:04:16+00:00,2024-08-13 22:23:36+00:00,2024-08-13 16:07:46+00:00,5811456,200
-52.7093,47.5649,804,Clouds,overcast clouds,04d,stations,59.04,58.82,56.79,60.28,1009,89,1009,1004,10000,7.15,26,100,2.0,2007916.0,St. John's,CA,2024-08-13 07:54:43+00:00,2024-08-13 22:16:43+00:00,2024-08-13 20:37:47+00:00,6324733,200
-61.793,17.0667,502,Rain,heavy intensity rain,10d,stations,82.89,86.9,82.89,82.89,1010,65,1010,1009,5089,1.34,309,100,2.0,2016933.0,All Saints,AG,2024-08-13 07:50:15+00:00,2024-08-13 20:33:51+00:00,2024-08-13 19:07:49+00:00,3576397,200
-58.3772,-34.6132,800,Clear,clear sky,01d,stations,62.55,60.33,60.93,63.99,1018,39,1018,1017,10000,10.73,203,3,2.0,2020613.0,Buenos Aires,AR,2024-08-13 09:35:15+00:00,2024-08-13 20:21:32+00:00,2024-08-13 20:04:06+00:00,3435910,200
-64.1811,-31.4135,800,Clear,clear sky,01d,stations,72.66,70.57,72.25,73.76,1012,20,1012,956,10000,2.68,203,0,2.0,2074146.0,Córdoba,AR,2024-08-13 09:53:50+00:00,2024-08-13 20:49:22+00:00,2024-08-13 20:07:55+00:00,3860259,200
-60.6393,-32.9468,800,Clear,clear sky,01d,stations,65.79,63.37,64.11,65.95,1017,28,1017,1015,10000,4.92,360,0,2.0,2096177.0,Rosario,AR,2024-08-13 09:41:51+00:00,2024-08-13 20:33:02+00:00,2024-08-13 20:07:56+00:00,3838583,200
-70.027,12.524,803,Clouds,broken clouds,04d,stations,83.64,92.66,83.64,83.64,1008,79,1008,1008,10000,6.73,48,71,,,Oranjestad,AW,2024-08-13 08:28:19+00:00,2024-08-13 21:01:39+00:00,2024-08-13 19:07:58+00:00,3577154,200
-80.4498,26.6503,800,Clear,clear sky,01d,stations,92.59,102.83,88.99,94.01,1015,55,1015,1014,10000,4.28,334,6,2.0,37924.0,Palm Beach,US,2024-08-13 08:53:02+00:00,2024-08-13 22:00:18+00:00,2024-08-13 19:08:02+00:00,4167510,200
151.2073,-33.8679,301,Drizzle,drizzle,09d,stations,59.85,59.81,57.54,61.36,1023,91,1023,1017,9000,2.57,230,75,2.0,2091046.0,Sydney,AU,2024-08-14 08:35:22+00:00,2024-08-14 19:24:36+00:00,2024-08-14 08:56:20+00:00,2147714,200
-80.6081,28.0836,800,Clear,clear sky,01d,stations,89.13,101.55,87.03,91.38,1015,67,1015,1015,10000,6.17,130,0,1.0,4922.0,Melbourne,US,2024-08-13 08:51:43+00:00,2024-08-13 22:02:53+00:00,2024-08-13 19:04:24+00:00,4163971,200
153.0281,-27.4679,501,Rain,moderate rain,10d,stations,63.37,63.97,62.02,65.82,1018,97,1018,1012,4000,3.6,70,75,2.0,2092148.0,Brisbane,AU,2024-08-14 08:19:24+00:00,2024-08-14 19:26:00+00:00,2024-08-14 09:03:15+00:00,2174003,200
16.3721,48.2085,800,Clear,clear sky,01n,stations,80.06,82.11,75.2,82.26,1011,62,1011,984,10000,2.57,20,0,2.0,2037878.0,Vienna,AT,2024-08-13 07:46:31+00:00,2024-08-13 22:12:21+00:00,2024-08-14 00:58:38+00:00,2761369,200
15.45,47.0667,800,Clear,clear sky,01n,stations,73.74,74.8,71.35,76.93,1011,85,1011,955,10000,0.51,0,1,1.0,6871.0,Graz,AT,2024-08-13 07:53:04+00:00,2024-08-13 22:13:10+00:00,2024-08-14 01:05:06+00:00,2778067,200
13.044,47.7994,500,Rain,light rain,10n,stations,66.7,67.5,65.44,69.1,1011,94,1011,938,10000,4.63,160,75,1.0,6877.0,Salzburg,AT,2024-08-13 08:00:53+00:00,2024-08-13 22:24:36+00:00,2024-08-14 01:04:53+00:00,2766824,200
-59.6167,13.1,500,Rain,light rain,10d,stations,84.69,95.49,84.69,84.69,1014,79,1014,1011,10000,7.2,200,40,1.0,8772.0,Bridgetown,BB,2024-08-13 07:46:02+00:00,2024-08-13 20:20:40+00:00,2024-08-13 19:05:01+00:00,3374036,200
-59.5333,13.0667,500,Rain,light rain,10d,stations,84.29,94.39,84.29,84.29,1014,79,1014,1010,10000,7.2,200,40,1.0,8772.0,Oistins,BB,2024-08-13 07:45:44+00:00,2024-08-13 20:20:18+00:00,2024-08-13 19:08:17+00:00,3373652,200
-59.65,13.25,804,Clouds,overcast clouds,04d,stations,84.81,96.26,84.81,84.81,1014,80,1014,1011,10000,8.06,163,100,1.0,8772.0,Speightstown,BB,2024-08-13 07:46:00+00:00,2024-08-13 20:20:58+00:00,2024-08-13 19:08:19+00:00,3373505,200
4.3488,50.8504,800,Clear,clear sky,01n,stations,72.91,73.67,70.14,74.25,1011,80,1011,1004,10000,2.06,320,0,1.0,1227.0,Brussels,BE,2024-08-13 08:27:27+00:00,2024-08-13 23:07:35+00:00,2024-08-14 01:02:51+00:00,2800866,200
4.4035,51.2199,803,Clouds,broken clouds,04n,stations,71.06,71.73,68.02,73.35,1011,82,1011,1010,10000,3.6,340,75,1.0,1221.0,Antwerp,BE,2024-08-13 08:26:10+00:00,2024-08-13 23:08:26+00:00,2024-08-14 01:05:02+00:00,2803138,200
3.7167,51.05,803,Clouds,broken clouds,04n,stations,68.72,69.33,66.88,71.19,1011,86,1011,1010,10000,1.88,350,70,2.0,2093409.0,Ghent,BE,2024-08-13 08:29:24+00:00,2024-08-13 23:10:41+00:00,2024-08-14 01:03:00+00:00,2797656,200
18.3564,43.8486,800,Clear,clear sky,01n,stations,76.91,76.78,76.91,78.71,1013,53,1013,906,10000,2.24,0,0,2.0,145110.0,Sarajevo,BA,2024-08-13 07:48:49+00:00,2024-08-13 21:54:10+00:00,2024-08-14 01:05:51+00:00,3191281,200
17.1856,44.7758,802,Clouds,scattered clouds,03n,stations,78.17,77.9,78.17,78.17,1010,47,1010,969,10000,1.95,221,27,1.0,6904.0,Banja Luka,BA,2024-08-13 07:51:28+00:00,2024-08-13 22:00:53+00:00,2024-08-14 01:05:25+00:00,3204541,200
18.6694,44.5428,800,Clear,clear sky,01n,stations,73.36,73.83,73.36,73.36,1008,73,1008,970,10000,1.03,90,0,1.0,6907.0,Tuzla,BA,2024-08-13 07:46:03+00:00,2024-08-13 21:54:26+00:00,2024-08-14 01:08:09+00:00,3188582,200
25.9086,-24.6545,802,Clouds,scattered clouds,03n,stations,64.18,61.14,64.18,64.18,1016,18,1016,904,10000,1.58,14,41,,,Gaborone,BW,2024-08-13 08:44:52+00:00,2024-08-13 19:57:42+00:00,2024-08-14 01:08:32+00:00,933773,200
27.5079,-21.17,800,Clear,clear sky,01n,stations,63.32,61.66,63.32,63.32,1018,49,1018,908,10000,3.58,66,0,,,Francistown,BW,2024-08-13 08:34:17+00:00,2024-08-13 19:55:30+00:00,2024-08-14 01:08:34+00:00,933778,200
23.4167,-19.9833,800,Clear,clear sky,01n,stations,64.49,61.2,64.49,64.49,1017,12,1017,911,10000,2.24,96,0,,,Maun,BW,2024-08-13 08:49:16+00:00,2024-08-13 20:13:15+00:00,2024-08-14 01:07:40+00:00,933366,200
-46.6361,-23.5475,800,Clear,clear sky,01n,stations,51.53,50.23,50.45,52.45,1024,82,1024,933,10000,1.34,134,0,2.0,2082654.0,São Paulo,BR,2024-08-13 08:33:33+00:00,2024-08-13 19:49:19+00:00,2024-08-13 20:05:00+00:00,3448439,200
-43.2075,-22.9028,803,Clouds,broken clouds,04n,stations,66.16,65.25,66.16,66.16,1025,59,1025,1027,10000,4.63,200,75,1.0,8429.0,Rio de Janeiro,BR,2024-08-13 08:19:04+00:00,2024-08-13 19:36:22+00:00,2024-08-13 20:05:47+00:00,3451190,200
-47.9297,-15.7797,800,Clear,clear sky,01n,stations,77.92,76.39,74.62,77.92,1016,21,1016,891,10000,4.63,140,0,1.0,8336.0,Brasília,BR,2024-08-13 08:29:47+00:00,2024-08-13 20:03:25+00:00,2024-08-13 20:08:20+00:00,3469058,200
23.3242,42.6975,800,Clear,clear sky,01n,stations,75.81,75.4,74.89,77.09,1011,49,1011,934,10000,4.12,120,0,1.0,6366.0,Sofia,BG,2024-08-14 08:32:27+00:00,2024-08-14 22:30:27+00:00,2024-08-14 02:02:29+00:00,727011,200
24.75,42.15,800,Clear,clear sky,01n,stations,82.47,81.0,80.91,82.47,1010,32,1010,964,10000,3.09,90,0,1.0,6363.0,Plovdiv,BG,2024-08-14 08:27:50+00:00,2024-08-14 22:23:40+00:00,2024-08-14 02:05:55+00:00,728193,200
27.9167,43.2167,800,Clear,clear sky,01n,stations,76.55,77.99,74.88,77.43,1012,87,1012,995,10000,3.09,120,0,1.0,6367.0,Varna,BG,2024-08-14 08:13:00+00:00,2024-08-14 22:13:10+00:00,2024-08-14 02:07:54+00:00,726050,200
-79.4163,43.7001,803,Clouds,broken clouds,04d,stations,78.69,78.75,75.34,81.36,1017,53,1017,1001,10000,0.89,233,66,2.0,2010632.0,Toronto,CA,2024-08-13 08:20:32+00:00,2024-08-13 22:24:33+00:00,2024-08-13 19:04:07+00:00,6167865,200
-123.1193,49.2497,804,Clouds,overcast clouds,04d,stations,66.76,66.61,65.23,68.29,1017,74,1017,1009,10000,4.02,110,99,2.0,2011597.0,Vancouver,CA,2024-08-13 08:02:18+00:00,2024-08-13 22:32:21+00:00,2024-08-13 16:04:25+00:00,6173331,200
-73.5878,45.5088,800,Clear,clear sky,01d,stations,80.64,81.39,79.25,82.02,1014,50,1014,1010,10000,0.89,45,8,2.0,2095341.0,Montreal,CA,2024-08-13 07:53:13+00:00,2024-08-13 22:05:15+00:00,2024-08-13 19:04:55+00:00,6077243,200
-74.0817,4.6097,801,Clouds,few clouds,02d,stations,65.71,64.24,65.71,65.71,1016,48,1016,737,10000,5.66,180,20,1.0,8582.0,Bogota,CO,2024-08-13 07:52:59+00:00,2024-08-13 20:09:25+00:00,2024-08-13 18:08:54+00:00,3688689,200
-75.5636,6.2518,801,Clouds,few clouds,02d,stations,77.0,77.45,76.33,78.67,1011,65,1011,805,10000,5.81,110,20,2.0,2084700.0,Medellín,CO,2024-08-13 07:57:12+00:00,2024-08-13 20:17:04+00:00,2024-08-13 18:08:56+00:00,3674962,200
-76.5225,3.4372,802,Clouds,scattered clouds,03d,stations,86.0,87.33,86.0,86.0,1008,48,1008,869,10000,1.54,160,40,1.0,8590.0,Santiago de Cali,CO,2024-08-13 08:03:58+00:00,2024-08-13 20:17:57+00:00,2024-08-13 18:08:34+00:00,3687925,200
15.9775,45.8131,800,Clear,clear sky,01n,stations,78.26,79.03,75.42,78.48,1009,69,1009,991,10000,0.51,240,0,1.0,6389.0,Donji grad,HR,2024-08-13 07:53:56+00:00,2024-08-13 22:08:04+00:00,2024-08-14 01:08:59+00:00,6618983,200
16.4392,43.5089,800,Clear,clear sky,01n,stations,82.51,82.15,81.84,82.51,1010,42,1010,988,10000,1.03,0,0,1.0,6387.0,Split,HR,2024-08-13 07:57:13+00:00,2024-08-13 22:01:06+00:00,2024-08-14 01:03:54+00:00,3190261,200
14.4092,45.3431,800,Clear,clear sky,01n,stations,82.09,84.76,79.23,82.11,1011,61,1011,970,10000,2.06,330,0,1.0,6385.0,Rijeka,HR,2024-08-13 08:01:18+00:00,2024-08-13 22:13:15+00:00,2024-08-14 01:09:03+00:00,3191648,200
33.3667,35.1667,800,Clear,clear sky,01n,stations,82.0,88.3,79.32,83.37,1007,78,1007,974,10000,3.6,260,0,1.0,6370.0,Nicosia,CY,2024-08-14 08:05:46+00:00,2024-08-14 21:36:48+00:00,2024-08-14 02:05:41+00:00,146268,200
33.0333,34.675,800,Clear,clear sky,01n,stations,80.67,87.33,80.67,81.18,1006,89,1006,985,10000,5.66,260,0,1.0,6381.0,Limassol,CY,2024-08-14 08:07:53+00:00,2024-08-14 21:37:21+00:00,2024-08-14 02:09:06+00:00,146384,200
33.6292,34.9167,800,Clear,clear sky,01n,stations,82.74,91.26,80.91,84.94,1006,82,1006,1002,10000,2.57,210,0,2.0,2038713.0,Larnaca,CY,2024-08-14 08:05:07+00:00,2024-08-14 21:35:21+00:00,2024-08-14 02:08:53+00:00,146400,200
14.4208,50.088,800,Clear,clear sky,01n,stations,78.17,78.51,75.9,80.65,1012,60,1012,978,10000,5.66,100,0,1.0,6848.0,Prague,CZ,2024-08-13 07:49:18+00:00,2024-08-13 22:25:10+00:00,2024-08-14 01:00:44+00:00,3067696,200
16.608,49.1952,800,Clear,clear sky,01n,stations,76.69,76.32,73.78,78.84,1012,48,1012,977,10000,6.17,70,0,2.0,2045835.0,Brno,CZ,2024-08-13 07:42:59+00:00,2024-08-13 22:13:59+00:00,2024-08-14 00:58:10+00:00,3078610,200
18.282,49.8346,800,Clear,clear sky,01n,stations,68.81,68.22,66.47,70.38,1013,60,1013,986,10000,2.06,30,0,2.0,47767.0,Ostrava,CZ,2024-08-13 07:34:32+00:00,2024-08-13 22:09:03+00:00,2024-08-14 01:00:30+00:00,3068799,200
12.5655,55.6759,803,Clouds,broken clouds,04n,stations,64.44,63.97,61.9,65.14,1015,72,1015,1013,10000,6.17,110,83,2.0,2035645.0,Copenhagen,DK,2024-08-13 07:38:42+00:00,2024-08-13 22:50:37+00:00,2024-08-14 01:07:42+00:00,2618425,200
10.2108,56.1567,804,Clouds,overcast clouds,04n,stations,66.67,66.85,64.6,66.85,1013,81,1013,1007,10000,6.69,146,100,2.0,2001568.0,Aarhus,DK,2024-08-13 07:46:18+00:00,2024-08-13 23:01:51+00:00,2024-08-14 01:09:17+00:00,2624652,200
10.3883,55.3959,804,Clouds,overcast clouds,04n,stations,68.83,69.08,68.83,68.83,1013,78,1013,1009,10000,6.53,129,100,2.0,2016321.0,Odense,DK,2024-08-13 07:48:27+00:00,2024-08-13 22:58:16+00:00,2024-08-14 01:06:50+00:00,2615876,200
24.7535,59.437,800,Clear,clear sky,01n,stations,63.21,62.94,55.53,63.95,1017,79,1017,1014,10000,4.12,280,0,1.0,1330.0,Tallinn,EE,2024-08-14 07:36:20+00:00,2024-08-14 23:15:08+00:00,2024-08-14 02:05:36+00:00,588409,200
26.7251,58.3806,800,Clear,clear sky,01n,stations,58.17,57.22,55.65,59.32,1017,75,1017,1009,10000,2.57,280,0,2.0,2038091.0,Tartu,EE,2024-08-14 07:33:10+00:00,2024-08-14 23:02:31+00:00,2024-08-14 02:05:12+00:00,588335,200
28.1903,59.3772,801,Clouds,few clouds,02n,stations,59.59,59.4,59.59,59.59,1016,88,1016,1013,10000,1.76,303,20,,,Narva,EE,2024-08-14 07:22:51+00:00,2024-08-14 23:01:08+00:00,2024-08-14 02:09:23+00:00,590031,200
158.1611,6.9248,801,Clouds,few clouds,02d,stations,83.14,93.0,83.14,83.14,1011,84,1011,1001,10000,2.06,130,20,1.0,7907.0,Palikir,FM,2024-08-14 08:21:35+00:00,2024-08-14 20:42:45+00:00,2024-08-14 10:09:25+00:00,2081986,200
6.95,50.9333,801,Clouds,few clouds,02n,stations,69.33,70.11,68.23,72.59,1009,88,1009,1003,10000,1.54,10,20,2.0,2005976.0,Cologne,DE,2024-08-13 08:16:48+00:00,2024-08-13 22:57:26+00:00,2024-08-14 01:05:22+00:00,2886242,200
151.8468,7.4515,500,Rain,light rain,10d,stations,82.35,92.26,82.35,82.35,1010,89,1010,1010,10000,1.54,0,100,1.0,7898.0,Weno,FM,2024-08-14 07:46:17+00:00,2024-08-14 20:08:33+00:00,2024-08-14 09:09:28+00:00,2081114,200
24.9355,60.1695,800,Clear,clear sky,01n,stations,61.88,61.57,58.87,66.11,1016,81,1016,1014,10000,4.92,300,0,2.0,2011913.0,Helsinki,FI,2024-08-14 07:32:07+00:00,2024-08-14 23:17:54+00:00,2024-08-14 02:04:42+00:00,658225,200
24.6667,60.25,800,Clear,clear sky,01n,stations,61.41,61.16,58.84,66.07,1016,83,1016,1010,10000,2.24,282,0,2.0,2017075.0,Espoo,FI,2024-08-14 07:32:48+00:00,2024-08-14 23:19:22+00:00,2024-08-14 02:09:31+00:00,660129,200
23.7871,61.4991,800,Clear,clear sky,01n,stations,56.75,56.59,56.68,60.01,1016,95,1016,1002,10000,0.51,0,0,2.0,2081861.0,Tampere,FI,2024-08-14 07:29:52+00:00,2024-08-14 23:29:20+00:00,2024-08-14 02:09:33+00:00,634963,200
2.3488,48.8534,800,Clear,clear sky,01n,stations,73.69,74.19,70.38,75.15,1010,73,1010,1000,10000,2.57,360,0,2.0,2041230.0,Paris,FR,2024-08-13 08:40:59+00:00,2024-08-13 23:10:03+00:00,2024-08-14 01:01:43+00:00,2988507,200
5.5,43.3333,800,Clear,clear sky,01n,stations,74.84,75.54,73.58,76.86,1011,75,1011,992,10000,0.45,70,5,2.0,80238.0,Arrondissement de Marseille,FR,2024-08-13 08:41:23+00:00,2024-08-13 22:44:27+00:00,2024-08-14 01:05:43+00:00,2995468,200
4.5833,45.75,500,Rain,light rain,10n,stations,63.81,64.08,63.48,64.58,1013,89,1013,953,10000,1.44,196,100,2.0,2007821.0,Arrondissement de Lyon,FR,2024-08-13 08:39:42+00:00,2024-08-13 22:53:27+00:00,2024-08-14 01:07:55+00:00,2996943,200
13.4105,52.5244,800,Clear,clear sky,01n,stations,73.08,72.54,70.99,74.98,1012,52,1012,1007,10000,4.12,90,0,2.0,2011538.0,Berlin,DE,2024-08-13 07:46:07+00:00,2024-08-13 22:36:26+00:00,2024-08-14 01:07:46+00:00,2950159,200
11.5755,48.1374,500,Rain,light rain,10n,stations,64.99,65.37,63.01,67.8,1011,89,1011,949,10000,0.89,254,100,2.0,2002112.0,Munich,DE,2024-08-13 08:05:54+00:00,2024-08-13 22:31:20+00:00,2024-08-14 01:01:20+00:00,2867714,200
10.0,53.55,800,Clear,clear sky,01n,stations,78.53,78.24,74.61,80.38,1011,46,1011,1009,10000,4.12,120,0,1.0,1263.0,Hamburg,DE,2024-08-13 07:56:28+00:00,2024-08-13 22:53:22+00:00,2024-08-14 01:02:20+00:00,2911298,200
23.7162,37.9795,800,Clear,clear sky,01n,stations,85.62,84.29,82.15,86.99,1009,36,1009,985,10000,2.06,320,0,2.0,2005878.0,Athens,GR,2024-08-14 08:39:42+00:00,2024-08-14 22:20:04+00:00,2024-08-14 01:58:58+00:00,264371,200
22.9439,40.6403,800,Clear,clear sky,01n,stations,85.87,85.71,82.36,87.33,1009,42,1009,993,10000,1.34,84,0,2.0,2035774.0,Thessaloniki,GR,2024-08-14 08:37:59+00:00,2024-08-14 22:27:58+00:00,2024-08-14 02:08:49+00:00,734077,200
21.7344,38.2444,800,Clear,clear sky,01n,stations,82.54,83.88,78.78,82.83,1010,53,1010,984,10000,0.4,187,0,2.0,2073069.0,Pátrai,GR,2024-08-14 08:47:10+00:00,2024-08-14 22:28:27+00:00,2024-08-14 02:08:14+00:00,255683,200
100.3354,5.4112,202,Thunderstorm,thunderstorm with heavy rain,11n,stations,76.93,78.46,76.93,76.95,1008,88,1008,1005,1000,1.54,20,40,1.0,9438.0,George Town,MY,2024-08-14 09:14:28+00:00,2024-08-14 21:32:26+00:00,2024-08-14 07:09:49+00:00,1735106,200
-57.5167,6.25,802,Clouds,scattered clouds,03d,stations,81.93,88.38,81.93,81.93,1012,79,1012,1011,10000,3.27,49,37,,,New Amsterdam,GY,2024-08-13 07:45:01+00:00,2024-08-13 20:04:53+00:00,2024-08-13 19:09:51+00:00,3376762,200
-58.3,6.0,804,Clouds,overcast clouds,04d,stations,82.29,87.71,82.29,82.29,1011,73,1011,1005,10000,2.12,328,95,,,Linden,GY,2024-08-13 07:48:24+00:00,2024-08-13 20:07:45+00:00,2024-08-13 19:05:45+00:00,3377408,200
19.0399,47.498,800,Clear,clear sky,01n,stations,82.94,83.16,81.28,84.15,1010,46,1010,989,10000,5.14,90,0,2.0,2092234.0,Budapest,HU,2024-08-13 07:37:38+00:00,2024-08-13 21:59:53+00:00,2024-08-14 01:01:39+00:00,3054643,200
21.6333,47.5333,800,Clear,clear sky,01n,stations,77.13,77.22,74.97,80.53,1011,57,1011,997,10000,3.6,60,0,2.0,2092343.0,Debrecen,HU,2024-08-13 07:27:09+00:00,2024-08-13 21:49:37+00:00,2024-08-14 01:06:29+00:00,721472,200
20.1482,46.253,800,Clear,clear sky,01n,stations,85.75,83.79,85.75,85.75,1008,32,1008,999,10000,6.51,69,0,,,Szeged,HU,2024-08-13 07:36:13+00:00,2024-08-13 21:52:26+00:00,2024-08-14 01:09:18+00:00,715429,200
-21.8954,64.1355,804,Clouds,overcast clouds,04d,stations,48.38,43.3,48.38,49.8,991,87,991,979,10000,5.49,247,100,1.0,90.0,Reykjavik,IS,2024-08-13 07:13:56+00:00,2024-08-13 23:51:02+00:00,2024-08-13 23:07:20+00:00,3413829,200
-18.0878,65.6835,804,Clouds,overcast clouds,04d,stations,54.57,53.29,54.57,54.57,988,76,988,937,10000,1.98,229,100,,,Akureyri,IS,2024-08-13 06:47:02+00:00,2024-08-13 23:47:28+00:00,2024-08-13 23:06:41+00:00,2633274,200
-17.3389,66.0449,804,Clouds,overcast clouds,04d,stations,47.71,45.59,47.71,47.71,989,90,989,971,10000,2.2,67,100,,,Husavik,IS,2024-08-13 06:41:03+00:00,2024-08-13 23:47:28+00:00,2024-08-13 23:10:02+00:00,2629833,200
77.2311,28.6128,701,Mist,mist,50n,stations,82.56,94.6,82.56,82.56,1002,94,1002,976,3500,1.54,50,75,1.0,9165.0,New Delhi,IN,2024-08-14 07:49:57+00:00,2024-08-14 21:01:45+00:00,2024-08-14 04:40:04+00:00,1261481,200
72.8479,19.0144,721,Haze,haze,50n,stations,82.38,89.19,82.38,82.38,1006,78,1006,1005,2500,1.54,280,75,1.0,9052.0,Mumbai,IN,2024-08-14 08:19:36+00:00,2024-08-14 21:07:10+00:00,2024-08-14 04:36:11+00:00,1275339,200
77.6033,12.9762,803,Clouds,broken clouds,04n,stations,75.61,77.05,74.32,76.64,1006,89,1006,910,6000,1.03,100,75,1.0,9205.0,Bengaluru,IN,2024-08-14 08:07:22+00:00,2024-08-14 20:41:21+00:00,2024-08-14 04:39:07+00:00,1277333,200
106.8451,-6.2146,800,Clear,clear sky,01n,stations,75.63,77.07,74.21,78.1,1010,89,1010,1007,10000,1.54,141,3,2.0,2090182.0,Jakarta,ID,2024-08-14 08:00:20+00:00,2024-08-14 19:54:29+00:00,2024-08-14 06:06:09+00:00,1642911,200
112.7508,-7.2492,801,Clouds,few clouds,02n,stations,73.35,74.52,73.35,73.35,1011,88,1011,1010,6000,0.51,0,20,1.0,9363.0,Surabaya,ID,2024-08-14 07:37:47+00:00,2024-08-14 19:29:48+00:00,2024-08-14 06:10:11+00:00,1625822,200
98.6667,3.5833,701,Mist,mist,50n,stations,77.04,79.14,77.04,77.04,1008,100,1008,1003,1200,1.54,150,40,1.0,9412.0,Medan,ID,2024-08-14 08:23:01+00:00,2024-08-14 20:37:13+00:00,2024-08-14 06:10:13+00:00,1214520,200
-121.9358,37.7021,800,Clear,clear sky,01d,stations,78.21,77.47,69.35,85.3,1014,37,1014,990,10000,5.66,300,0,2.0,2016191.0,Dublin,US,2024-08-13 08:22:16+00:00,2024-08-13 22:02:55+00:00,2024-08-13 16:06:13+00:00,5344157,200
-8.4706,51.898,801,Clouds,few clouds,02n,stations,58.77,57.72,57.63,58.77,1014,72,1014,1002,10000,4.63,320,20,1.0,1563.0,Cork,IE,2024-08-13 08:15:41+00:00,2024-08-13 23:01:54+00:00,2024-08-14 00:10:16+00:00,2965140,200
-8.6231,52.6647,802,Clouds,scattered clouds,03n,stations,57.15,56.93,55.08,57.15,1014,93,1014,1008,10000,2.37,287,25,1.0,1569.0,Limerick,IE,2024-08-13 08:13:55+00:00,2024-08-13 23:04:53+00:00,2024-08-14 00:08:44+00:00,2962943,200
35.2163,31.769,800,Clear,clear sky,01n,stations,72.72,73.26,70.23,73.6,1009,76,1009,939,10000,2.25,291,0,2.0,2004982.0,Jerusalem,IL,2024-08-14 08:03:35+00:00,2024-08-14 21:24:11+00:00,2024-08-14 02:05:27+00:00,281184,200
34.8,32.0833,800,Clear,clear sky,01n,stations,82.45,88.83,79.29,82.65,1007,76,1007,1005,10000,1.03,0,0,1.0,6845.0,Tel Aviv,IL,2024-08-14 08:04:47+00:00,2024-08-14 21:26:19+00:00,2024-08-14 02:06:09+00:00,293396,200
34.9892,32.8156,800,Clear,clear sky,01n,stations,80.94,85.57,79.29,81.18,1007,76,1007,1000,10000,0.45,351,0,2.0,2046556.0,Haifa,IL,2024-08-14 08:02:56+00:00,2024-08-14 21:26:39+00:00,2024-08-14 02:08:20+00:00,294801,200
-85.1647,34.257,801,Clouds,few clouds,02d,stations,90.59,91.56,89.47,93.47,1015,40,1015,989,10000,4.12,50,20,2.0,2009938.0,Rome,US,2024-08-13 09:00:50+00:00,2024-08-13 22:30:13+00:00,2024-08-13 19:05:01+00:00,4219762,200
9.1895,45.4643,801,Clouds,few clouds,02n,stations,81.93,85.68,78.51,83.79,1009,67,1009,995,10000,1.03,0,20,1.0,6742.0,Milan,IT,2024-08-13 08:21:55+00:00,2024-08-13 22:34:23+00:00,2024-08-14 01:05:28+00:00,3173435,200
14.25,40.8333,800,Clear,clear sky,01n,stations,81.27,86.63,80.11,83.61,1011,78,1011,1007,10000,2.42,315,0,2.0,2039264.0,Naples,IT,2024-08-13 08:11:25+00:00,2024-08-13 22:04:25+00:00,2024-08-14 01:04:02+00:00,3172394,200
-76.7936,17.997,803,Clouds,broken clouds,04d,stations,89.17,99.34,89.17,89.17,1012,63,1012,982,5527,1.58,155,75,2.0,2091678.0,Kingston,JM,2024-08-13 07:49:11+00:00,2024-08-13 20:34:54+00:00,2024-08-13 18:10:10+00:00,3489854,200
-77.9188,18.4712,803,Clouds,broken clouds,04d,stations,88.79,101.39,88.79,88.79,1013,79,1013,1001,9768,3.23,52,77,2.0,2003687.0,Montego Bay,JM,2024-08-13 07:53:08+00:00,2024-08-13 20:39:58+00:00,2024-08-13 18:10:32+00:00,3489460,200
-77.1048,18.4025,802,Clouds,scattered clouds,03d,stations,89.76,102.36,89.76,89.76,1013,73,1013,987,10000,4.02,67,44,2.0,2091678.0,Ocho Rios,JM,2024-08-13 07:49:58+00:00,2024-08-13 20:36:37+00:00,2024-08-13 18:10:33+00:00,3489239,200
36.8167,-1.2833,802,Clouds,scattered clouds,03n,stations,61.92,61.2,61.92,63.97,1017,72,1017,838,10000,3.6,40,40,1.0,2543.0,Nairobi,KE,2024-08-14 08:35:22+00:00,2024-08-14 20:39:37+00:00,2024-08-14 02:08:11+00:00,184745,200
39.6636,-4.0547,800,Clear,clear sky,01n,stations,75.02,76.23,75.02,75.02,1015,85,1015,1013,10000,4.2,151,6,,,Mombasa,KE,2024-08-14 08:26:48+00:00,2024-08-14 20:25:24+00:00,2024-08-14 02:10:37+00:00,186301,200
34.7617,-0.1022,801,Clouds,few clouds,02n,stations,67.87,67.69,67.87,67.87,1014,71,1014,886,10000,1.7,72,12,,,Kisumu,KE,2024-08-14 08:42:23+00:00,2024-08-14 20:49:02+00:00,2024-08-14 02:10:38+00:00,191245,200
47.9783,29.3697,800,Clear,clear sky,01n,stations,102.85,106.72,102.85,104.79,999,29,999,997,10000,6.32,334,0,2.0,2036793.0,Kuwait City,KW,2024-08-14 07:15:57+00:00,2024-08-14 20:29:44+00:00,2024-08-14 02:07:14+00:00,285787,200
48.061,29.0891,800,Clear,clear sky,01n,stations,103.71,106.84,100.78,103.71,999,27,999,993,10000,5.47,333,0,2.0,2036792.0,Ahmadi,KW,2024-08-14 07:16:01+00:00,2024-08-14 20:29:01+00:00,2024-08-14 02:10:44+00:00,285841,200
24.0833,57.0,800,Clear,clear sky,01n,stations,60.04,59.97,58.91,60.04,1018,90,1018,1017,10000,1.51,333,0,2.0,2075320.0,Rīga,LV,2024-08-14 07:49:28+00:00,2024-08-14 23:07:22+00:00,2024-08-14 02:02:57+00:00,456173,200
26.5333,55.8833,800,Clear,clear sky,01n,stations,53.56,52.81,53.56,53.56,1018,89,1018,1002,10000,1.33,282,0,,,Daugavpils,LV,2024-08-14 07:43:55+00:00,2024-08-14 22:53:19+00:00,2024-08-14 02:10:47+00:00,460413,200
21.0367,56.5419,803,Clouds,broken clouds,04n,stations,55.38,55.04,55.38,55.38,1018,94,1018,1018,10000,0.0,0,75,1.0,1875.0,Liepāja,LV,2024-08-14 08:03:27+00:00,2024-08-14 23:17:45+00:00,2024-08-14 02:10:49+00:00,457955,200
25.2798,54.6892,800,Clear,clear sky,01n,stations,59.88,59.2,54.72,59.88,1018,77,1018,999,10000,0.51,0,0,1.0,1883.0,Vilnius,LT,2024-08-14 07:53:12+00:00,2024-08-14 22:54:03+00:00,2024-08-14 02:02:52+00:00,593116,200
23.9,54.9,800,Clear,clear sky,01n,stations,56.68,56.08,54.88,57.22,1018,86,1018,1009,10000,0.0,0,0,2.0,2089556.0,Kaunas,LT,2024-08-14 07:58:00+00:00,2024-08-14 23:00:18+00:00,2024-08-14 02:10:52+00:00,598316,200
21.1175,55.7172,802,Clouds,scattered clouds,03n,stations,59.05,58.42,59.05,59.05,1018,80,1018,1017,10000,3.68,22,44,1.0,1881.0,Klaipėda,LT,2024-08-14 08:06:13+00:00,2024-08-14 23:14:20+00:00,2024-08-14 02:06:37+00:00,598098,200
5.9806,49.4958,801,Clouds,few clouds,02n,stations,70.16,70.59,66.61,72.01,1009,79,1009,972,10000,1.26,355,15,2.0,2074250.0,Esch-sur-Alzette,LU,2024-08-13 08:24:43+00:00,2024-08-13 22:57:16+00:00,2024-08-14 01:10:57+00:00,2960596,200
5.8914,49.5242,801,Clouds,few clouds,02n,stations,69.98,70.57,66.51,71.92,1009,83,1009,970,10000,1.04,13,14,2.0,2074250.0,Differdange,LU,2024-08-13 08:25:00+00:00,2024-08-13 22:57:42+00:00,2024-08-14 01:10:59+00:00,2960651,200
47.5361,-18.9137,801,Clouds,few clouds,02n,stations,53.56,53.31,53.56,53.56,1022,100,1022,881,10000,2.57,130,20,1.0,2136.0,Antananarivo,MG,2024-08-14 08:10:59+00:00,2024-08-14 19:38:15+00:00,2024-08-14 02:08:34+00:00,1070940,200
49.3833,-18.1667,500,Rain,light rain,10n,stations,69.66,70.27,69.66,69.66,1020,84,1020,1019,10000,0.67,15,58,,,Toamasina,MG,2024-08-14 08:02:46+00:00,2024-08-14 19:31:42+00:00,2024-08-14 02:11:02+00:00,1053384,200
49.2917,-12.2787,800,Clear,clear sky,01n,stations,73.13,73.81,73.13,73.13,1017,78,1017,1012,10000,7.62,135,10,,,Antsiranana,MG,2024-08-14 07:56:46+00:00,2024-08-14 19:38:25+00:00,2024-08-14 02:11:04+00:00,1069129,200
33.7873,-13.9669,800,Clear,clear sky,01n,stations,68.52,66.9,68.52,68.52,1017,39,1017,901,10000,0.7,197,0,,,Lilongwe,MW,2024-08-13 08:01:03+00:00,2024-08-13 19:38:30+00:00,2024-08-14 01:11:06+00:00,927967,200
35.0085,-15.785,800,Clear,clear sky,01n,stations,66.09,64.38,66.09,66.09,1017,42,1017,903,10000,2.02,119,0,,,Blantyre,MW,2024-08-13 07:58:10+00:00,2024-08-13 19:31:37+00:00,2024-08-14 01:11:07+00:00,931755,200
34.0207,-11.4656,800,Clear,clear sky,01n,stations,60.42,58.75,60.42,60.42,1017,55,1017,877,10000,0.49,239,0,,,Mzuzu,MW,2024-08-13 07:57:25+00:00,2024-08-13 19:40:16+00:00,2024-08-14 01:11:09+00:00,925475,200
14.5147,35.8997,800,Clear,clear sky,01n,stations,81.14,86.36,81.14,81.14,1011,78,1011,1010,10000,1.54,300,0,1.0,6861.0,Valletta,MT,2024-08-13 08:19:14+00:00,2024-08-13 21:54:29+00:00,2024-08-14 01:06:23+00:00,2562305,200
14.5019,35.9125,800,Clear,clear sky,01n,stations,81.09,86.23,81.09,81.09,1011,78,1011,1010,10000,1.54,300,0,1.0,6861.0,Sliema,MT,2024-08-13 08:19:16+00:00,2024-08-13 21:54:34+00:00,2024-08-14 01:11:13+00:00,2562501,200
14.4611,35.8972,800,Clear,clear sky,01n,stations,81.0,86.04,81.0,81.0,1011,78,1011,1010,10000,1.54,300,0,1.0,6861.0,Birkirkara,MT,2024-08-13 08:19:27+00:00,2024-08-13 21:54:42+00:00,2024-08-14 01:11:14+00:00,2563191,200
171.3803,7.0897,520,Rain,light intensity shower rain,09d,stations,82.36,89.15,82.36,82.36,1012,78,1012,1012,10000,4.12,80,100,1.0,7894.0,Majuro,MH,2024-08-14 08:28:32+00:00,2024-08-14 20:50:04+00:00,2024-08-14 11:11:16+00:00,2113779,200
18.6333,60.1167,804,Clouds,overcast clouds,04n,stations,63.79,63.68,63.79,63.79,1017,81,1017,1015,10000,3.14,178,96,2.0,2081022.0,Arnö,SE,2024-08-13 06:55:11+00:00,2024-08-13 22:45:35+00:00,2024-08-14 01:11:19+00:00,2725271,200
-99.1277,19.4285,500,Rain,light rain,10d,stations,73.13,72.16,72.95,73.85,1013,43,1013,764,10000,3.09,70,75,2.0,47729.0,Mexico City,MX,2024-08-13 08:16:52+00:00,2024-08-13 21:05:53+00:00,2024-08-13 17:10:41+00:00,3530597,200
-103.3333,20.6667,501,Rain,moderate rain,10d,stations,69.57,69.66,69.57,69.57,1013,73,1013,841,6437,6.69,280,100,1.0,7128.0,Guadalajara,MX,2024-08-13 08:32:12+00:00,2024-08-13 21:24:11+00:00,2024-08-13 17:09:08+00:00,4005539,200
-100.3167,25.6667,801,Clouds,few clouds,02d,stations,92.07,91.98,92.07,93.11,1013,35,1013,917,10000,3.79,112,24,1.0,7108.0,Monterrey,MX,2024-08-13 08:13:50+00:00,2024-08-13 21:18:25+00:00,2024-08-13 17:11:25+00:00,3995465,200
28.8575,47.0056,800,Clear,clear sky,01n,stations,73.92,72.66,73.92,75.63,1014,35,1014,999,10000,2.57,20,0,2.0,2002036.0,Chișinău,MD,2024-08-14 08:00:51+00:00,2024-08-14 22:17:48+00:00,2024-08-14 02:09:13+00:00,618426,200
27.9114,47.7585,804,Clouds,overcast clouds,04n,stations,69.85,68.41,69.85,69.85,1015,40,1015,997,10000,4.42,27,91,,,Bălți,MD,2024-08-14 08:02:48+00:00,2024-08-14 22:23:24+00:00,2024-08-14 02:11:28+00:00,618605,200
29.4711,46.8306,801,Clouds,few clouds,02n,stations,75.97,74.77,75.97,75.97,1014,32,1014,1007,10000,3.39,16,15,1.0,7022.0,Tighina,MD,2024-08-14 07:58:48+00:00,2024-08-14 22:14:56+00:00,2024-08-14 02:06:40+00:00,618577,200
106.8832,47.9077,501,Rain,moderate rain,10n,stations,60.93,60.57,60.93,60.93,1013,82,1013,849,10000,0.0,0,40,1.0,9644.0,Ulaanbaatar,MN,2024-08-14 07:46:15+00:00,2024-08-14 22:08:15+00:00,2024-08-14 07:09:47+00:00,2028462,200
104.0833,49.0333,803,Clouds,broken clouds,04n,stations,57.83,57.6,57.83,57.83,1010,91,1010,858,10000,1.69,197,55,,,Erdenet,MN,2024-08-14 07:54:36+00:00,2024-08-14 22:22:19+00:00,2024-08-14 07:11:34+00:00,2031405,200
105.9362,49.4922,802,Clouds,scattered clouds,03n,stations,64.4,64.17,64.4,64.4,1009,77,1009,920,10000,0.82,249,26,,,Darkhan,MN,2024-08-14 07:45:58+00:00,2024-08-14 22:16:07+00:00,2024-08-14 07:11:36+00:00,2031964,200
19.2636,42.4411,800,Clear,clear sky,01n,stations,85.78,87.04,72.9,85.78,1010,48,1010,973,10000,1.54,290,0,1.0,7035.0,Podgorica,ME,2024-08-13 07:48:08+00:00,2024-08-13 21:47:35+00:00,2024-08-14 01:04:25+00:00,3193044,200
18.9445,42.7731,800,Clear,clear sky,01n,stations,66.06,64.2,66.06,66.06,1012,39,1012,903,10000,1.79,20,0,1.0,7040.0,Nikšić,ME,2024-08-13 07:48:44+00:00,2024-08-13 21:49:33+00:00,2024-08-14 01:11:39+00:00,3194494,200
18.5375,42.4531,800,Clear,clear sky,01n,stations,72.46,73.08,72.46,79.68,1010,78,1010,968,10000,0.0,0,0,1.0,7040.0,Herceg Novi,ME,2024-08-13 07:51:01+00:00,2024-08-13 21:50:31+00:00,2024-08-14 01:11:40+00:00,3199394,200
96.1561,16.8053,803,Clouds,broken clouds,04n,stations,78.76,78.76,78.76,78.76,1007,94,1007,1006,6000,1.03,270,75,1.0,9322.0,Yangon,MM,2024-08-14 07:48:54+00:00,2024-08-14 20:31:25+00:00,2024-08-14 05:41:42+00:00,1298824,200
96.0836,21.9747,804,Clouds,overcast clouds,04n,stations,75.65,77.14,75.65,75.65,1006,90,1006,992,10000,3.38,167,100,,,Mandalay,MM,2024-08-14 07:43:06+00:00,2024-08-14 20:37:48+00:00,2024-08-14 05:41:04+00:00,1311874,200
96.1345,19.754,804,Clouds,overcast clouds,04n,stations,72.9,74.5,72.9,72.9,1007,98,1007,993,10000,1.59,164,100,,,Naypyidaw,MM,2024-08-14 07:45:34+00:00,2024-08-14 20:34:56+00:00,2024-08-14 05:41:46+00:00,6611854,200
4.8897,52.374,520,Rain,light intensity shower rain,09n,stations,69.04,69.17,66.85,70.97,1010,75,1010,1010,10000,3.6,220,20,2.0,2016069.0,Amsterdam,NL,2024-08-13 08:20:43+00:00,2024-08-13 23:10:00+00:00,2024-08-14 01:04:12+00:00,2759794,200
4.4792,51.9225,500,Rain,light rain,10n,stations,69.26,69.89,67.86,69.91,1011,85,1011,1011,10000,4.12,110,75,1.0,1541.0,Rotterdam,NL,2024-08-13 08:23:45+00:00,2024-08-13 23:10:14+00:00,2024-08-14 01:10:20+00:00,2747891,200
4.2986,52.0767,803,Clouds,broken clouds,04n,stations,69.06,69.71,66.99,69.98,1011,86,1011,1011,10000,4.12,110,75,2.0,2025757.0,The Hague,NL,2024-08-13 08:24:00+00:00,2024-08-13 23:11:26+00:00,2024-08-14 01:07:52+00:00,2747373,200
174.7667,-36.8667,800,Clear,clear sky,01d,stations,49.73,49.73,45.52,52.56,1030,71,1030,1026,10000,0.89,228,2,2.0,2012285.0,Auckland,NZ,2024-08-14 09:05:44+00:00,2024-08-14 19:45:47+00:00,2024-08-14 11:05:47+00:00,2193733,200
174.7756,-41.2866,802,Clouds,scattered clouds,03d,stations,46.11,40.69,42.06,46.87,1029,86,1029,1016,10000,5.14,10,40,2.0,2080525.0,Wellington,NZ,2024-08-14 09:13:05+00:00,2024-08-14 19:38:22+00:00,2024-08-14 11:11:54+00:00,2179537,200
172.6333,-43.5333,801,Clouds,few clouds,02d,stations,41.94,40.1,40.48,43.68,1026,84,1026,1020,10000,1.53,42,16,2.0,2017931.0,Christchurch,NZ,2024-08-14 09:25:48+00:00,2024-08-14 19:42:47+00:00,2024-08-14 11:08:54+00:00,2192362,200
21.4333,42.0,800,Clear,clear sky,01n,stations,76.68,75.97,76.68,76.68,1009,41,1009,958,10000,0.51,0,0,1.0,7023.0,Skopje,MK,2024-08-13 07:40:21+00:00,2024-08-13 21:38:01+00:00,2024-08-14 01:11:17+00:00,785842,200
21.3403,41.0311,800,Clear,clear sky,01n,stations,74.97,73.94,74.97,74.97,1012,38,1012,906,10000,2.56,226,1,,,Bitola,MK,2024-08-13 07:42:39+00:00,2024-08-13 21:36:28+00:00,2024-08-14 01:07:25+00:00,792578,200
20.8019,41.1172,800,Clear,clear sky,01n,stations,67.89,67.82,67.89,67.89,1012,73,1012,908,10000,1.54,290,0,1.0,7013.0,Ohrid,MK,2024-08-13 07:44:38+00:00,2024-08-13 21:38:47+00:00,2024-08-14 01:07:25+00:00,787487,200
10.7461,59.9127,804,Clouds,overcast clouds,04n,stations,59.67,59.0,57.94,61.66,1015,78,1015,991,10000,0.73,95,91,2.0,2091316.0,Oslo,NO,2024-08-13 07:27:48+00:00,2024-08-13 23:16:03+00:00,2024-08-14 01:04:28+00:00,3143244,200
5.328,60.392,803,Clouds,broken clouds,04n,stations,64.83,65.16,62.08,65.88,1008,88,1008,997,10000,2.06,140,75,1.0,1612.0,Bergen,NO,2024-08-13 07:47:06+00:00,2024-08-13 23:40:06+00:00,2024-08-14 01:10:01+00:00,3161733,200
5.7333,58.9701,800,Clear,clear sky,01n,stations,69.31,68.9,68.14,70.21,1009,63,1009,1006,10000,6.69,140,0,2.0,2031843.0,Stavanger,NO,2024-08-13 07:52:23+00:00,2024-08-13 23:31:34+00:00,2024-08-14 01:08:51+00:00,3137115,200
58.5922,23.6139,802,Clouds,scattered clouds,03n,stations,86.02,96.01,86.02,86.02,1001,72,1001,991,10000,2.64,55,30,1.0,7560.0,Muscat,OM,2024-08-14 07:41:05+00:00,2024-08-14 20:39:43+00:00,2024-08-14 03:11:43+00:00,287286,200
54.0924,17.0151,804,Clouds,overcast clouds,04n,stations,77.09,78.93,77.09,77.09,1004,94,1004,991,7000,1.03,150,100,1.0,7562.0,Salalah,OM,2024-08-14 08:06:56+00:00,2024-08-14 20:49:51+00:00,2024-08-14 03:08:04+00:00,286621,200
56.7468,24.3643,803,Clouds,broken clouds,04n,stations,85.57,98.17,85.57,85.57,1001,80,1001,1000,10000,1.86,62,67,,,Sohar,OM,2024-08-14 07:47:31+00:00,2024-08-14 20:48:02+00:00,2024-08-14 03:12:12+00:00,286282,200
134.4733,7.3398,802,Clouds,scattered clouds,03d,stations,77.32,78.89,77.32,77.32,1010,88,1010,1009,10000,1.54,310,40,1.0,7901.0,Koror,PW,2024-08-14 07:55:54+00:00,2024-08-14 20:17:55+00:00,2024-08-14 08:12:15+00:00,1559446,200
147.1797,-9.4431,804,Clouds,overcast clouds,04d,stations,76.42,77.99,76.42,76.42,1012,90,1012,1008,10000,1.11,119,100,,,Port Moresby,PG,2024-08-14 08:22:22+00:00,2024-08-14 20:09:49+00:00,2024-08-14 09:10:14+00:00,2088122,200
146.9847,-6.7221,803,Clouds,broken clouds,04d,stations,72.45,73.15,72.45,72.45,1012,80,1012,992,10000,2.61,318,64,,,Lae,PG,2024-08-14 08:20:20+00:00,2024-08-14 20:13:24+00:00,2024-08-14 09:12:20+00:00,2092740,200
144.2274,-5.8581,804,Clouds,overcast clouds,04d,stations,58.59,58.75,58.59,58.59,1017,98,1017,797,10000,1.13,235,91,,,Mount Hagen,PG,2024-08-14 08:30:28+00:00,2024-08-14 20:25:20+00:00,2024-08-14 09:12:22+00:00,2090409,200
-57.6359,-25.3007,800,Clear,clear sky,01d,stations,68.22,66.29,65.5,68.25,1018,33,1018,1008,10000,3.09,100,0,2.0,2091488.0,Asunción,PY,2024-08-13 08:19:40+00:00,2024-08-13 19:31:11+00:00,2024-08-13 19:11:33+00:00,3439389,200
-54.6167,-25.5167,800,Clear,clear sky,01d,stations,63.21,61.48,63.21,66.94,1020,48,1020,993,10000,1.03,150,0,1.0,8354.0,Ciudad del Este,PY,2024-08-13 08:07:52+00:00,2024-08-13 19:18:50+00:00,2024-08-13 19:10:57+00:00,3439101,200
-55.9,-27.3333,800,Clear,clear sky,01d,stations,64.44,62.28,64.44,64.44,1020,36,1020,1004,10000,2.06,140,0,1.0,8556.0,Encarnación,PY,2024-08-13 08:15:17+00:00,2024-08-13 19:21:41+00:00,2024-08-13 19:12:27+00:00,3438735,200
120.9822,14.6042,804,Clouds,overcast clouds,04n,stations,78.4,80.28,77.05,79.12,1008,92,1008,1011,10000,1.73,311,100,2.0,2008256.0,Manila,PH,2024-08-14 07:42:03+00:00,2024-08-14 20:19:41+00:00,2024-08-14 07:07:57+00:00,1701668,200
123.8907,10.3167,804,Clouds,overcast clouds,04n,stations,78.93,78.93,78.93,78.93,1009,86,1009,995,10000,1.37,249,89,,,Cebu City,PH,2024-08-14 07:35:05+00:00,2024-08-14 20:03:23+00:00,2024-08-14 07:09:49+00:00,1717512,200
125.6128,7.0731,801,Clouds,few clouds,02n,stations,78.28,79.61,78.28,78.28,1010,81,1010,1011,10000,0.69,222,12,,,Davao City,PH,2024-08-14 07:31:37+00:00,2024-08-14 19:53:04+00:00,2024-08-14 07:12:33+00:00,1715348,200
21.0118,52.2298,800,Clear,clear sky,01n,stations,65.68,64.44,61.56,67.89,1017,53,1017,1006,10000,9.83,270,0,2.0,2032856.0,Warsaw,PL,2024-08-13 07:16:36+00:00,2024-08-13 22:05:09+00:00,2024-08-14 01:03:35+00:00,756135,200
19.9167,50.0833,800,Clear,clear sky,01n,stations,66.07,64.96,64.4,67.73,1016,55,1016,985,10000,3.6,60,0,2.0,2095241.0,Krakow,PL,2024-08-13 07:27:18+00:00,2024-08-13 22:03:12+00:00,2024-08-14 01:11:14+00:00,3094802,200
17.0333,51.1,800,Clear,clear sky,01n,stations,68.68,67.89,67.41,69.8,1014,56,1014,998,10000,5.14,90,0,2.0,2017463.0,Wrocław,PL,2024-08-13 07:35:56+00:00,2024-08-13 22:17:38+00:00,2024-08-14 01:09:56+00:00,3081368,200
-9.1333,38.7167,802,Clouds,scattered clouds,03n,stations,71.35,71.85,69.75,72.82,1017,78,1017,1009,10000,4.12,320,40,1.0,6901.0,Lisbon,PT,2024-08-13 08:48:59+00:00,2024-08-13 22:33:54+00:00,2024-08-13 23:59:28+00:00,2267057,200
-8.611,41.1496,300,Drizzle,light intensity drizzle,09n,stations,66.54,66.99,65.71,68.49,1017,87,1017,1008,4500,1.03,0,100,2.0,2035417.0,Porto,PT,2024-08-13 08:42:18+00:00,2024-08-13 22:36:23+00:00,2024-08-14 00:05:42+00:00,2735943,200
-8.4195,40.2056,804,Clouds,overcast clouds,04n,stations,71.08,72.12,71.08,71.08,1016,90,1016,998,10000,1.22,309,100,2.0,2016210.0,Coimbra,PT,2024-08-13 08:43:22+00:00,2024-08-13 22:33:48+00:00,2024-08-14 00:12:44+00:00,2740637,200
26.1063,44.4323,800,Clear,clear sky,01n,stations,80.78,82.38,78.82,81.86,1009,57,1009,1000,10000,4.12,80,0,2.0,2032494.0,Bucharest,RO,2024-08-14 08:17:41+00:00,2024-08-14 22:22:58+00:00,2024-08-14 02:02:32+00:00,683506,200
23.6,46.7667,800,Clear,clear sky,01n,stations,72.88,73.06,72.48,72.88,1012,68,1012,957,10000,2.24,250,0,1.0,6913.0,Cluj-Napoca,RO,2024-08-14 08:22:28+00:00,2024-08-14 22:38:14+00:00,2024-08-14 02:11:00+00:00,681290,200
21.2272,45.7494,800,Clear,clear sky,01n,stations,84.27,83.1,82.24,84.38,1008,37,1008,998,10000,3.6,60,0,1.0,6926.0,Timișoara,RO,2024-08-14 08:34:19+00:00,2024-08-14 22:45:22+00:00,2024-08-14 02:00:31+00:00,665087,200
37.6156,55.7522,500,Rain,light rain,10n,stations,58.55,57.34,55.92,60.39,1009,69,1009,990,10000,3.45,323,38,2.0,2095214.0,Moscow,RU,2024-08-14 07:00:01+00:00,2024-08-14 22:08:34+00:00,2024-08-14 02:01:33+00:00,524901,200
30.2642,59.8944,701,Mist,mist,50n,stations,60.94,61.16,60.94,60.94,1015,94,1015,1012,8000,3.0,280,24,1.0,8926.0,Saint Petersburg,RU,2024-08-14 07:12:06+00:00,2024-08-14 22:55:17+00:00,2024-08-14 01:59:05+00:00,498817,200
82.9344,55.0411,800,Clear,clear sky,01n,stations,63.7,63.39,63.7,63.7,1011,77,1011,991,10000,5.0,140,0,1.0,8958.0,Novosibirsk,RU,2024-08-14 08:01:04+00:00,2024-08-14 23:05:01+00:00,2024-08-14 06:12:05+00:00,1496747,200
-61.0061,13.9957,500,Rain,light rain,10d,stations,81.55,87.28,81.55,84.27,1012,78,1012,1005,10000,8.29,165,100,2.0,2022312.0,Castries,LC,2024-08-13 07:50:36+00:00,2024-08-13 20:27:13+00:00,2024-08-13 19:12:58+00:00,3576812,200
-60.95,13.7167,801,Clouds,few clouds,02d,stations,85.32,93.43,82.6,85.32,1012,70,1012,1007,10000,7.72,180,20,1.0,8798.0,Vieux Fort,LC,2024-08-13 07:50:41+00:00,2024-08-13 20:26:41+00:00,2024-08-13 19:12:59+00:00,3576414,200
-60.95,14.0667,500,Rain,light rain,10d,stations,83.1,91.58,83.1,85.82,1012,80,1012,1007,10000,9.01,164,100,2.0,2022312.0,Gros Islet,LC,2024-08-13 07:50:18+00:00,2024-08-13 20:27:04+00:00,2024-08-13 19:13:01+00:00,3576686,200
-61.2248,13.1587,804,Clouds,overcast clouds,04d,stations,80.83,84.99,80.83,80.83,1012,74,1012,1004,10000,8.43,153,100,,,Kingstown,VC,2024-08-13 07:52:24+00:00,2024-08-13 20:27:10+00:00,2024-08-13 19:13:03+00:00,3577887,200
-171.7667,-13.8333,804,Clouds,overcast clouds,04n,stations,81.91,87.85,81.91,82.31,1016,77,1016,1016,10000,9.64,131,94,2.0,47733.0,Apia,WS,2024-08-15 08:42:21+00:00,2024-08-15 20:21:05+00:00,2024-08-14 12:13:09+00:00,4035413,200
-17.4441,14.6937,803,Clouds,broken clouds,04n,stations,83.28,91.72,83.28,83.28,1013,79,1013,1013,10000,6.56,293,54,1.0,2410.0,Dakar,SN,2024-08-13 08:55:33+00:00,2024-08-13 21:33:49+00:00,2024-08-13 23:08:38+00:00,2253354,200
-7.6833,8.2833,501,Rain,moderate rain,10n,stations,71.53,72.84,71.53,71.53,1013,95,1013,960,5326,3.09,228,100,,,Touba,CI,2024-08-13 08:23:31+00:00,2024-08-13 20:47:46+00:00,2024-08-13 23:13:16+00:00,2280376,200
-15.0,16.3333,800,Clear,clear sky,01n,stations,84.87,88.41,84.87,84.87,1010,58,1010,1006,10000,8.23,284,4,,,Saint-Louis,SN,2024-08-13 08:43:54+00:00,2024-08-13 21:25:54+00:00,2024-08-13 23:13:18+00:00,2246451,200
20.4651,44.804,800,Clear,clear sky,01n,stations,80.33,82.2,78.24,80.33,1007,60,1007,992,10000,2.81,68,0,2.0,2037836.0,Belgrade,RS,2024-08-13 07:38:17+00:00,2024-08-13 21:47:51+00:00,2024-08-14 01:13:20+00:00,792680,200
19.8369,45.2517,800,Clear,clear sky,01n,stations,77.97,76.87,77.97,78.8,1007,30,1007,993,10000,3.21,94,0,2.0,2031823.0,Novi Sad,RS,2024-08-13 07:39:47+00:00,2024-08-13 21:51:22+00:00,2024-08-14 01:13:22+00:00,3194360,200
21.9033,43.3247,500,Rain,light rain,10n,stations,84.18,83.32,74.66,84.18,1008,39,1008,961,10000,1.54,100,0,1.0,7031.0,Niš,RS,2024-08-13 07:35:44+00:00,2024-08-13 21:38:53+00:00,2024-08-14 01:13:18+00:00,787657,200
17.1067,48.1482,800,Clear,clear sky,01n,stations,78.6,78.94,77.63,80.26,1010,59,1010,989,10000,2.06,30,0,2.0,2006545.0,Bratislava,SK,2024-08-13 07:43:44+00:00,2024-08-13 22:09:15+00:00,2024-08-14 01:10:32+00:00,3060972,200
21.3333,48.6667,800,Clear,clear sky,01n,stations,72.09,71.49,67.42,72.09,1014,53,1014,975,10000,3.6,20,0,1.0,7049.0,Kosice,SK,2024-08-13 07:25:28+00:00,2024-08-13 21:53:43+00:00,2024-08-14 01:10:16+00:00,865084,200
18.0845,48.3076,801,Clouds,few clouds,02n,stations,81.64,82.67,75.34,81.64,1010,52,1010,991,10000,4.13,86,18,2.0,2003682.0,Nitra,SK,2024-08-13 07:39:24+00:00,2024-08-13 22:05:46+00:00,2024-08-14 01:10:32+00:00,3058531,200
14.5051,46.0511,801,Clouds,few clouds,02n,stations,73.53,74.57,70.86,76.06,1011,85,1011,962,10000,1.03,0,20,2.0,2003318.0,Ljubljana,SI,2024-08-13 07:59:17+00:00,2024-08-13 22:14:31+00:00,2024-08-14 01:09:36+00:00,3196359,200
15.6467,46.5547,501,Rain,moderate rain,10n,stations,74.34,75.47,72.28,76.89,1010,85,1010,960,10000,0.0,0,0,2.0,18640.0,Maribor,SI,2024-08-13 07:53:31+00:00,2024-08-13 22:11:09+00:00,2024-08-14 01:13:31+00:00,3195506,200
15.2604,46.2309,801,Clouds,few clouds,02n,stations,74.03,75.13,72.63,75.7,1011,85,1011,964,10000,1.55,311,14,2.0,2010817.0,Celje,SI,2024-08-13 07:55:50+00:00,2024-08-13 22:11:55+00:00,2024-08-14 01:09:24+00:00,3202781,200
159.95,-9.4333,804,Clouds,overcast clouds,04d,stations,79.57,79.57,79.57,79.57,1013,81,1013,983,10000,4.17,112,99,,,Honiara,SB,2024-08-14 08:31:17+00:00,2024-08-14 20:18:44+00:00,2024-08-14 10:13:34+00:00,2108502,200
156.8419,-8.103,500,Rain,light rain,10d,stations,81.77,88.0,81.77,81.77,1011,79,1011,1010,10000,3.69,97,100,,,Gizo Government Station,SB,2024-08-14 08:42:20+00:00,2024-08-14 20:32:33+00:00,2024-08-14 10:13:35+00:00,2108857,200
160.7034,-8.7676,802,Clouds,scattered clouds,03d,stations,78.84,78.84,78.84,78.84,1012,87,1012,995,10000,1.57,90,47,,,Auki,SB,2024-08-14 08:27:35+00:00,2024-08-14 20:16:25+00:00,2024-08-14 10:13:37+00:00,2109701,200
18.4232,-33.9258,804,Clouds,overcast clouds,04n,stations,52.45,51.06,51.28,53.11,1020,78,1020,1019,10000,2.24,225,100,2.0,2073005.0,Cape Town,ZA,2024-08-13 09:27:15+00:00,2024-08-13 20:15:12+00:00,2024-08-14 01:08:58+00:00,3369157,200
28.0436,-26.2023,803,Clouds,broken clouds,04n,stations,55.69,53.82,53.83,57.97,1016,61,1016,828,10000,4.02,331,57,2.0,2005686.0,Johannesburg,ZA,2024-08-13 08:38:16+00:00,2024-08-13 19:47:14+00:00,2024-08-14 01:11:47+00:00,993800,200
31.0292,-29.8579,804,Clouds,overcast clouds,04n,stations,69.12,68.07,69.12,69.12,1004,50,1004,1003,10000,3.29,321,100,,,Durban,ZA,2024-08-13 08:31:07+00:00,2024-08-13 19:30:30+00:00,2024-08-14 01:10:06+00:00,1007311,200
-3.7026,40.4165,800,Clear,clear sky,01n,stations,76.93,76.33,74.01,78.22,1010,43,1010,937,10000,5.66,310,0,2.0,2007545.0,Madrid,ES,2024-08-13 09:24:05+00:00,2024-08-13 23:15:21+00:00,2024-08-14 01:05:11+00:00,3117735,200
2.159,41.3888,801,Clouds,few clouds,02n,stations,81.07,83.3,78.55,82.69,1009,61,1009,1001,10000,1.54,190,20,2.0,18549.0,Barcelona,ES,2024-08-13 08:58:44+00:00,2024-08-13 22:53:49+00:00,2024-08-14 01:06:22+00:00,3128760,200
-0.8333,39.3333,804,Clouds,overcast clouds,04n,stations,74.35,75.16,73.4,77.07,1010,78,1010,952,10000,0.95,103,93,2.0,2091336.0,Valencia,ES,2024-08-13 09:14:38+00:00,2024-08-13 23:01:51+00:00,2024-08-14 01:11:16+00:00,2509951,200
-55.1667,5.8667,801,Clouds,few clouds,02d,stations,91.31,96.64,91.31,91.45,1012,49,1012,1011,10000,3.6,90,20,1.0,8646.0,Distrikt Paramaribo,SR,2024-08-13 08:36:01+00:00,2024-08-13 20:55:05+00:00,2024-08-13 20:13:48+00:00,3383329,200
-56.9833,5.95,804,Clouds,overcast clouds,04d,stations,82.62,88.39,82.62,82.62,1012,73,1012,1011,10000,5.46,40,92,,,Nieuw Nickerie,SR,2024-08-13 08:43:12+00:00,2024-08-13 21:02:26+00:00,2024-08-13 20:13:50+00:00,3383427,200
-54.05,5.5,802,Clouds,scattered clouds,03d,stations,82.98,87.3,82.98,82.98,1012,66,1012,1008,10000,3.08,52,35,,,Albina,SR,2024-08-13 08:31:56+00:00,2024-08-13 20:50:14+00:00,2024-08-13 20:13:51+00:00,3384792,200
18.0649,59.3326,804,Clouds,overcast clouds,04n,stations,63.28,62.89,60.66,64.85,1017,76,1017,1012,10000,1.54,200,100,1.0,1788.0,Stockholm,SE,2024-08-13 07:01:17+00:00,2024-08-13 22:44:02+00:00,2024-08-14 01:10:51+00:00,2673730,200
11.9668,57.7072,800,Clear,clear sky,01n,stations,63.27,62.82,61.45,66.11,1014,75,1014,1009,10000,4.12,160,0,2.0,2002867.0,Gothenburg,SE,2024-08-13 07:33:00+00:00,2024-08-13 23:01:06+00:00,2024-08-14 01:11:22+00:00,2711537,200
13.0007,55.6059,804,Clouds,overcast clouds,04n,stations,63.9,63.28,60.3,65.1,1015,70,1015,1014,10000,6.47,105,96,1.0,1575.0,Malmo,SE,2024-08-13 07:37:13+00:00,2024-08-13 22:48:37+00:00,2024-08-14 01:10:39+00:00,2692969,200
8.55,47.3667,801,Clouds,few clouds,02n,stations,73.49,74.21,70.16,75.36,1010,78,1010,953,10000,1.54,0,20,2.0,2004824.0,Zurich,CH,2024-08-13 08:19:57+00:00,2024-08-13 22:41:29+00:00,2024-08-14 01:06:52+00:00,2657896,200
-88.3054,41.8875,804,Clouds,overcast clouds,04d,stations,82.72,83.57,80.33,84.99,1018,50,1018,991,10000,2.57,280,100,2.0,2020346.0,Geneva,US,2024-08-13 07:59:51+00:00,2024-08-13 21:56:19+00:00,2024-08-13 18:04:15+00:00,4893591,200
7.4474,46.9481,202,Thunderstorm,thunderstorm with heavy rain,11n,stations,68.38,68.49,66.11,74.16,1010,76,1010,940,10000,3.13,105,75,1.0,6937.0,Bern,CH,2024-08-13 08:25:24+00:00,2024-08-13 22:44:51+00:00,2024-08-14 01:10:02+00:00,2661552,200
35.7395,-6.1722,800,Clear,clear sky,01n,stations,68.67,67.5,68.67,68.67,1015,48,1015,892,10000,3.79,90,1,,,Dodoma,TZ,2024-08-14 08:44:39+00:00,2024-08-14 20:38:57+00:00,2024-08-14 02:09:31+00:00,160196,200
39.2695,-6.8235,800,Clear,clear sky,01n,stations,74.14,75.25,74.14,74.14,1015,85,1015,1013,10000,3.01,116,0,,,Dar es Salaam,TZ,2024-08-14 08:31:12+00:00,2024-08-14 20:24:09+00:00,2024-08-14 02:09:30+00:00,160263,200
36.6833,-3.3667,801,Clouds,few clouds,02n,stations,61.57,60.53,61.57,61.57,1017,66,1017,863,10000,2.91,93,11,,,Arusha,TZ,2024-08-14 08:38:01+00:00,2024-08-14 20:38:02+00:00,2024-08-14 02:14:06+00:00,161325,200
100.5167,13.75,803,Clouds,broken clouds,04n,stations,80.83,89.28,80.49,82.29,1006,96,1006,1006,10000,0.59,283,78,2.0,2032756.0,Bangkok,TH,2024-08-14 08:04:52+00:00,2024-08-14 20:40:34+00:00,2024-08-14 06:09:25+00:00,1609350,200
99.0,18.75,801,Clouds,few clouds,02n,stations,76.95,78.85,76.39,79.34,1008,96,1008,964,10000,1.03,0,20,1.0,9244.0,Chiang Mai,TH,2024-08-14 08:05:17+00:00,2024-08-14 20:52:18+00:00,2024-08-14 06:09:43+00:00,1153670,200
100.8833,12.9333,804,Clouds,overcast clouds,04n,stations,78.21,79.72,76.17,83.95,1006,85,1006,1002,10000,3.04,178,100,2.0,2021751.0,Pattaya,TH,2024-08-14 08:04:17+00:00,2024-08-14 20:38:13+00:00,2024-08-14 06:09:57+00:00,1614295,200
-173.9833,-18.65,801,Clouds,few clouds,02n,stations,74.08,74.01,74.08,74.08,1020,60,1020,1018,10000,4.12,160,20,1.0,7292.0,Neiafu,TO,2024-08-15 08:56:23+00:00,2024-08-15 20:24:47+00:00,2024-08-14 12:14:14+00:00,4032420,200
-61.5166,10.6662,804,Clouds,overcast clouds,04d,stations,86.86,99.23,86.86,86.86,1012,74,1012,1004,10000,2.88,182,100,2.0,2039873.0,Port of Spain,TT,2024-08-13 07:56:18+00:00,2024-08-13 20:25:36+00:00,2024-08-13 19:14:18+00:00,3573890,200
120.6898,15.0286,804,Clouds,overcast clouds,04n,stations,78.22,79.97,78.22,78.22,1009,90,1009,1002,10000,0.35,18,100,,,San Fernando,PH,2024-08-14 07:42:45+00:00,2024-08-14 20:21:20+00:00,2024-08-14 07:14:20+00:00,1690039,200
-0.4044,54.2797,804,Clouds,overcast clouds,04n,stations,64.94,64.8,62.65,66.65,1009,78,1009,1001,10000,0.89,322,100,2.0,2005986.0,Scarborough,GB,2024-08-13 07:35:40+00:00,2024-08-13 22:37:24+00:00,2024-08-14 00:14:21+00:00,2638419,200
-0.1257,51.5085,801,Clouds,few clouds,02n,stations,67.14,66.88,63.12,69.64,1010,71,1010,1006,10000,4.12,220,19,2.0,2075535.0,London,GB,2024-08-13 07:43:26+00:00,2024-08-13 22:27:23+00:00,2024-08-14 00:07:29+00:00,2643743,200
-86.8025,33.5207,803,Clouds,broken clouds,04d,stations,92.32,98.65,89.94,94.89,1015,49,1015,992,10000,2.57,0,75,1.0,3436.0,Birmingham,US,2024-08-13 08:08:33+00:00,2024-08-13 21:35:36+00:00,2024-08-13 18:04:42+00:00,4049979,200
-2.2374,53.4809,500,Rain,light rain,10n,stations,61.14,61.32,59.76,62.55,1010,93,1010,1000,10000,2.57,290,75,2.0,2013239.0,Manchester,GB,2024-08-13 07:45:42+00:00,2024-08-13 22:42:01+00:00,2024-08-14 00:12:00+00:00,2643123,200
-74.006,40.7143,802,Clouds,scattered clouds,03d,stations,81.23,81.03,78.58,83.97,1015,42,1015,1013,10000,4.12,320,40,1.0,4610.0,New York,US,2024-08-13 08:04:55+00:00,2024-08-13 21:56:53+00:00,2024-08-13 19:10:08+00:00,5128581,200
-118.2437,34.0522,800,Clear,clear sky,01d,stations,87.76,91.38,77.45,95.32,1012,52,1012,993,10000,5.14,270,0,2.0,2075946.0,Los Angeles,US,2024-08-13 08:13:33+00:00,2024-08-13 21:42:07+00:00,2024-08-13 16:14:29+00:00,5368361,200
-87.65,41.85,802,Clouds,scattered clouds,03d,stations,82.06,82.26,79.38,85.69,1018,46,1018,997,10000,2.57,0,40,2.0,2010190.0,Chicago,US,2024-08-13 07:57:18+00:00,2024-08-13 21:53:38+00:00,2024-08-13 18:11:17+00:00,4887398,200
168.3219,-17.7338,803,Clouds,broken clouds,04d,stations,74.8,75.42,74.8,74.8,1019,73,1019,1011,10000,6.17,110,75,1.0,7314.0,Port-Vila,VU,2024-08-14 08:06:43+00:00,2024-08-14 19:36:20+00:00,2024-08-14 10:14:32+00:00,2135171,200
167.1667,-15.5333,804,Clouds,overcast clouds,04d,stations,76.73,77.49,76.73,76.73,1018,72,1018,1007,10000,7.02,99,100,,,Luganville,VU,2024-08-14 08:08:55+00:00,2024-08-14 19:43:23+00:00,2024-08-14 10:14:34+00:00,2136150,200
-80.0007,-3.2709,804,Clouds,overcast clouds,04d,stations,73.35,74.05,73.35,73.35,1010,78,1010,1010,10000,1.54,320,100,1.0,8539.0,ESPIRITU SANTO,EC,2024-08-13 08:24:49+00:00,2024-08-13 20:24:56+00:00,2024-08-13 18:14:35+00:00,3654533,200
31.0539,-17.8294,800,Clear,clear sky,01n,stations,58.86,56.61,58.86,58.86,1020,46,1020,858,10000,3.46,62,0,,,Harare,ZW,2024-08-13 08:16:16+00:00,2024-08-13 19:45:09+00:00,2024-08-14 01:14:37+00:00,890299,200
28.5833,-20.15,800,Clear,clear sky,01n,stations,61.43,58.73,61.43,61.43,1019,31,1019,871,10000,1.92,104,0,,,Bulawayo,ZW,2024-08-13 08:28:48+00:00,2024-08-13 19:52:23+00:00,2024-08-14 01:14:06+00:00,894701,200
32.6709,-18.9707,800,Clear,clear sky,01n,stations,57.22,55.69,57.22,57.22,1020,65,1020,895,10000,1.15,21,0,,,Mutare,ZW,2024-08-13 08:11:06+00:00,2024-08-13 19:37:23+00:00,2024-08-14 01:14:40+00:00,884979,200
